[
  {
    "id": "seattle-central-library-reading-room",
    "name": "Seattle Central Library \u2013 Reading Room",
    "address": "1000 4th Ave, Seattle, WA 98104",
    "lat": 47.6067,
    "lng": -122.332,
    "city": "Seattle",
    "category": "library",
    "quiet_level": 3,
    "lighting_level": 3,
    "outlets_density": 2,
    "seating_type": "table",
    "linger_ok": true,
    "low_sensory": true,
    "outdoor_seating": false,
    "accessible_restroom": true,
    "open_late": false,
    "wifi_quality": 3,
    "safety_evening": 3
  },
  {
    "id": "seattle-public-library-capitol-hill-branch",
    "name": "SPL \u2013 Capitol Hill Branch",
    "address": "425 Harvard Ave E, Seattle, WA 98102",
    "lat": 47.6226,
    "lng": -122.3215,
    "city": "Seattle",
    "category": "library",
    "quiet_level": 3,
    "lighting_level": 2,
    "outlets_density": 2,
    "seating_type": "table",
    "linger_ok": true,
    "low_sensory": true,
    "outdoor_seating": false,
    "accessible_restroom": true,
    "open_late": false,
    "wifi_quality": 3,
    "safety_evening": 3
  },
  {
    "id": "starling-coffee-lobby",
    "name": "Starling Coffee (Lobby Tables)",
    "address": "123 5th Ave, Seattle, WA 98109",
    "lat": 47.619,
    "lng": -122.348,
    "city": "Seattle",
    "category": "cafe",
    "quiet_level": 2,
    "lighting_level": 2,
    "outlets_density": 2,
    "seating_type": "table",
    "linger_ok": true,
    "low_sensory": false,
    "outdoor_seating": true,
    "accessible_restroom": true,
    "open_late": true,
    "wifi_quality": 2,
    "safety_evening": 3
  },
  {
    "id": "olympic-sculpture-park-benches",
    "name": "Olympic Sculpture Park Benches",
    "address": "2901 Western Ave, Seattle, WA 98121",
    "lat": 47.6165,
    "lng": -122.3553,
    "city": "Seattle",
    "category": "park",
    "quiet_level": 2,
    "lighting_level": 3,
    "outlets_density": 0,
    "seating_type": "bench",
    "linger_ok": true,
    "low_sensory": true,
    "outdoor_seating": true,
    "accessible_restroom": false,
    "open_late": false,
    "wifi_quality": 0,
    "safety_evening": 2
  },
  {
    "id": "hyatt-regency-lobby",
    "name": "Hyatt Regency Seattle \u2013 Lobby",
    "address": "808 Howell St, Seattle, WA 98101",
    "lat": 47.6137,
    "lng": -122.3335,
    "city": "Seattle",
    "category": "hotel lobby",
    "quiet_level": 2,
    "lighting_level": 2,
    "outlets_density": 2,
    "seating_type": "soft",
    "linger_ok": true,
    "low_sensory": false,
    "outdoor_seating": false,
    "accessible_restroom": true,
    "open_late": true,
    "wifi_quality": 2,
    "safety_evening": 3
  },
  {
    "id": "frye-art-museum-lobby",
    "name": "Frye Art Museum \u2013 Lobby Seating",
    "address": "704 Terry Ave, Seattle, WA 98104",
    "lat": 47.6069,
    "lng": -122.3256,
    "city": "Seattle",
    "category": "museum lobby",
    "quiet_level": 3,
    "lighting_level": 2,
    "outlets_density": 1,
    "seating_type": "soft",
    "linger_ok": true,
    "low_sensory": true,
    "outdoor_seating": false,
    "accessible_restroom": true,
    "open_late": false,
    "wifi_quality": 1,
    "safety_evening": 3
  },
  {
    "id": "gas-works-park-picnic-table",
    "name": "Gas Works Park \u2013 Picnic Tables",
    "address": "2101 N Northlake Way, Seattle, WA 98103",
    "lat": 47.6456,
    "lng": -122.3344,
    "city": "Seattle",
    "category": "park",
    "quiet_level": 2,
    "lighting_level": 3,
    "outlets_density": 0,
    "seating_type": "table",
    "linger_ok": true,
    "low_sensory": true,
    "outdoor_seating": true,
    "accessible_restroom": false,
    "open_late": false,
    "wifi_quality": 0,
    "safety_evening": 2
  },
  {
    "id": "uw-suzzallo-reading-room",
    "name": "UW \u2013 Suzzallo Reading Room (Public Hours)",
    "address": "4000 15th Ave NE, Seattle, WA 98195",
    "lat": 47.6569,
    "lng": -122.3094,
    "city": "Seattle",
    "category": "university library",
    "quiet_level": 3,
    "lighting_level": 3,
    "outlets_density": 2,
    "seating_type": "table",
    "linger_ok": true,
    "low_sensory": true,
    "outdoor_seating": false,
    "accessible_restroom": true,
    "open_late": true,
    "wifi_quality": 3,
    "safety_evening": 3
  },
  {
    "id": "seattle-spot-9",
    "name": "Seattle Spot 9",
    "address": "Various, Seattle, WA",
    "lat": 47.6147,
    "lng": -122.3714,
    "city": "Seattle",
    "category": "park",
    "quiet_level": 2,
    "lighting_level": 3,
    "outlets_density": 0,
    "seating_type": "bench",
    "linger_ok": true,
    "low_sensory": true,
    "outdoor_seating": true,
    "accessible_restroom": false,
    "open_late": false,
    "wifi_quality": 0,
    "safety_evening": 2
  },
  {
    "id": "seattle-spot-10",
    "name": "Seattle Spot 10",
    "address": "Various, Seattle, WA",
    "lat": 47.5874,
    "lng": -122.3791,
    "city": "Seattle",
    "category": "park",
    "quiet_level": 2,
    "lighting_level": 3,
    "outlets_density": 0,
    "seating_type": "bench",
    "linger_ok": true,
    "low_sensory": true,
    "outdoor_seating": true,
    "accessible_restroom": false,
    "open_late": false,
    "wifi_quality": 0,
    "safety_evening": 2
  },
  {
    "id": "seattle-spot-11",
    "name": "Seattle Spot 11",
    "address": "Various, Seattle, WA",
    "lat": 47.5983,
    "lng": -122.359,
    "city": "Seattle",
    "category": "park",
    "quiet_level": 2,
    "lighting_level": 3,
    "outlets_density": 0,
    "seating_type": "bench",
    "linger_ok": true,
    "low_sensory": true,
    "outdoor_seating": true,
    "accessible_restroom": false,
    "open_late": false,
    "wifi_quality": 0,
    "safety_evening": 2
  },
  {
    "id": "seattle-spot-12",
    "name": "Seattle Spot 12",
    "address": "Various, Seattle, WA",
    "lat": 47.57,
    "lng": -122.3671,
    "city": "Seattle",
    "category": "park",
    "quiet_level": 2,
    "lighting_level": 3,
    "outlets_density": 0,
    "seating_type": "bench",
    "linger_ok": true,
    "low_sensory": true,
    "outdoor_seating": true,
    "accessible_restroom": false,
    "open_late": false,
    "wifi_quality": 0,
    "safety_evening": 2
  },
  {
    "id": "seattle-spot-13",
    "name": "Seattle Spot 13",
    "address": "Various, Seattle, WA",
    "lat": 47.5549,
    "lng": -122.3474,
    "city": "Seattle",
    "category": "park",
    "quiet_level": 2,
    "lighting_level": 3,
    "outlets_density": 0,
    "seating_type": "bench",
    "linger_ok": true,
    "low_sensory": true,
    "outdoor_seating": true,
    "accessible_restroom": false,
    "open_late": false,
    "wifi_quality": 0,
    "safety_evening": 2
  },
  {
    "id": "seattle-spot-14",
    "name": "Seattle Spot 14",
    "address": "Various, Seattle, WA",
    "lat": 47.5437,
    "lng": -122.3329,
    "city": "Seattle",
    "category": "park",
    "quiet_level": 2,
    "lighting_level": 3,
    "outlets_density": 0,
    "seating_type": "bench",
    "linger_ok": true,
    "low_sensory": true,
    "outdoor_seating": true,
    "accessible_restroom": false,
    "open_late": false,
    "wifi_quality": 0,
    "safety_evening": 2
  },
  {
    "id": "seattle-spot-15",
    "name": "Seattle Spot 15",
    "address": "Various, Seattle, WA",
    "lat": 47.6412,
    "lng": -122.3581,
    "city": "Seattle",
    "category": "park",
    "quiet_level": 2,
    "lighting_level": 3,
    "outlets_density": 0,
    "seating_type": "bench",
    "linger_ok": true,
    "low_sensory": true,
    "outdoor_seating": true,
    "accessible_restroom": false,
    "open_late": false,
    "wifi_quality": 0,
    "safety_evening": 2
  },
  {
    "id": "seattle-spot-16",
    "name": "Seattle Spot 16",
    "address": "Various, Seattle, WA",
    "lat": 47.6092,
    "lng": -122.3077,
    "city": "Seattle",
    "category": "park",
    "quiet_level": 2,
    "lighting_level": 3,
    "outlets_density": 0,
    "seating_type": "bench",
    "linger_ok": true,
    "low_sensory": true,
    "outdoor_seating": true,
    "accessible_restroom": false,
    "open_late": false,
    "wifi_quality": 0,
    "safety_evening": 2
  },
  {
    "id": "seattle-spot-17",
    "name": "Seattle Spot 17",
    "address": "Various, Seattle, WA",
    "lat": 47.632,
    "lng": -122.3746,
    "city": "Seattle",
    "category": "park",
    "quiet_level": 2,
    "lighting_level": 3,
    "outlets_density": 0,
    "seating_type": "bench",
    "linger_ok": true,
    "low_sensory": true,
    "outdoor_seating": true,
    "accessible_restroom": false,
    "open_late": false,
    "wifi_quality": 0,
    "safety_evening": 2
  },
  {
    "id": "seattle-spot-18",
    "name": "Seattle Spot 18",
    "address": "Various, Seattle, WA",
    "lat": 47.6185,
    "lng": -122.2939,
    "city": "Seattle",
    "category": "park",
    "quiet_level": 2,
    "lighting_level": 3,
    "outlets_density": 0,
    "seating_type": "bench",
    "linger_ok": true,
    "low_sensory": true,
    "outdoor_seating": true,
    "accessible_restroom": false,
    "open_late": false,
    "wifi_quality": 0,
    "safety_evening": 2
  },
  {
    "id": "seattle-spot-19",
    "name": "Seattle Spot 19",
    "address": "Various, Seattle, WA",
    "lat": 47.628,
    "lng": -122.3354,
    "city": "Seattle",
    "category": "park",
    "quiet_level": 2,
    "lighting_level": 3,
    "outlets_density": 0,
    "seating_type": "bench",
    "linger_ok": true,
    "low_sensory": true,
    "outdoor_seating": true,
    "accessible_restroom": false,
    "open_late": false,
    "wifi_quality": 0,
    "safety_evening": 2
  },
  {
    "id": "seattle-spot-20",
    "name": "Seattle Spot 20",
    "address": "Various, Seattle, WA",
    "lat": 47.5795,
    "lng": -122.3296,
    "city": "Seattle",
    "category": "park",
    "quiet_level": 2,
    "lighting_level": 3,
    "outlets_density": 0,
    "seating_type": "bench",
    "linger_ok": true,
    "low_sensory": true,
    "outdoor_seating": true,
    "accessible_restroom": false,
    "open_late": false,
    "wifi_quality": 0,
    "safety_evening": 2
  },
  {
    "id": "seattle-spot-21",
    "name": "Seattle Spot 21",
    "address": "Various, Seattle, WA",
    "lat": 47.5583,
    "lng": -122.3205,
    "city": "Seattle",
    "category": "park",
    "quiet_level": 2,
    "lighting_level": 3,
    "outlets_density": 0,
    "seating_type": "bench",
    "linger_ok": true,
    "low_sensory": true,
    "outdoor_seating": true,
    "accessible_restroom": false,
    "open_late": false,
    "wifi_quality": 0,
    "safety_evening": 2
  },
  {
    "id": "seattle-spot-22",
    "name": "Seattle Spot 22",
    "address": "Various, Seattle, WA",
    "lat": 47.5713,
    "lng": -122.3229,
    "city": "Seattle",
    "category": "park",
    "quiet_level": 2,
    "lighting_level": 3,
    "outlets_density": 0,
    "seating_type": "bench",
    "linger_ok": true,
    "low_sensory": true,
    "outdoor_seating": true,
    "accessible_restroom": false,
    "open_late": false,
    "wifi_quality": 0,
    "safety_evening": 2
  },
  {
    "id": "seattle-spot-23",
    "name": "Seattle Spot 23",
    "address": "Various, Seattle, WA",
    "lat": 47.5578,
    "lng": -122.3066,
    "city": "Seattle",
    "category": "park",
    "quiet_level": 2,
    "lighting_level": 3,
    "outlets_density": 0,
    "seating_type": "bench",
    "linger_ok": true,
    "low_sensory": true,
    "outdoor_seating": true,
    "accessible_restroom": false,
    "open_late": false,
    "wifi_quality": 0,
    "safety_evening": 2
  },
  {
    "id": "seattle-spot-24",
    "name": "Seattle Spot 24",
    "address": "Various, Seattle, WA",
    "lat": 47.6091,
    "lng": -122.3549,
    "city": "Seattle",
    "category": "park",
    "quiet_level": 2,
    "lighting_level": 3,
    "outlets_density": 0,
    "seating_type": "bench",
    "linger_ok": true,
    "low_sensory": true,
    "outdoor_seating": true,
    "accessible_restroom": false,
    "open_late": false,
    "wifi_quality": 0,
    "safety_evening": 2
  },
  {
    "id": "seattle-spot-25",
    "name": "Seattle Spot 25",
    "address": "Various, Seattle, WA",
    "lat": 47.6496,
    "lng": -122.3082,
    "city": "Seattle",
    "category": "park",
    "quiet_level": 2,
    "lighting_level": 3,
    "outlets_density": 0,
    "seating_type": "bench",
    "linger_ok": true,
    "low_sensory": true,
    "outdoor_seating": true,
    "accessible_restroom": false,
    "open_late": false,
    "wifi_quality": 0,
    "safety_evening": 2
  },
  {
    "id": "seattle-spot-26",
    "name": "Seattle Spot 26",
    "address": "Various, Seattle, WA",
    "lat": 47.6241,
    "lng": -122.3746,
    "city": "Seattle",
    "category": "park",
    "quiet_level": 2,
    "lighting_level": 3,
    "outlets_density": 0,
    "seating_type": "bench",
    "linger_ok": true,
    "low_sensory": true,
    "outdoor_seating": true,
    "accessible_restroom": false,
    "open_late": false,
    "wifi_quality": 0,
    "safety_evening": 2
  },
  {
    "id": "seattle-spot-27",
    "name": "Seattle Spot 27",
    "address": "Various, Seattle, WA",
    "lat": 47.6445,
    "lng": -122.3628,
    "city": "Seattle",
    "category": "park",
    "quiet_level": 2,
    "lighting_level": 3,
    "outlets_density": 0,
    "seating_type": "bench",
    "linger_ok": true,
    "low_sensory": true,
    "outdoor_seating": true,
    "accessible_restroom": false,
    "open_late": false,
    "wifi_quality": 0,
    "safety_evening": 2
  },
  {
    "id": "seattle-spot-28",
    "name": "Seattle Spot 28",
    "address": "Various, Seattle, WA",
    "lat": 47.6507,
    "lng": -122.3505,
    "city": "Seattle",
    "category": "park",
    "quiet_level": 2,
    "lighting_level": 3,
    "outlets_density": 0,
    "seating_type": "bench",
    "linger_ok": true,
    "low_sensory": true,
    "outdoor_seating": true,
    "accessible_restroom": false,
    "open_late": false,
    "wifi_quality": 0,
    "safety_evening": 2
  },
  {
    "id": "seattle-spot-29",
    "name": "Seattle Spot 29",
    "address": "Various, Seattle, WA",
    "lat": 47.6484,
    "lng": -122.371,
    "city": "Seattle",
    "category": "park",
    "quiet_level": 2,
    "lighting_level": 3,
    "outlets_density": 0,
    "seating_type": "bench",
    "linger_ok": true,
    "low_sensory": true,
    "outdoor_seating": true,
    "accessible_restroom": false,
    "open_late": false,
    "wifi_quality": 0,
    "safety_evening": 2
  },
  {
    "id": "seattle-spot-30",
    "name": "Seattle Spot 30",
    "address": "Various, Seattle, WA",
    "lat": 47.5436,
    "lng": -122.336,
    "city": "Seattle",
    "category": "park",
    "quiet_level": 2,
    "lighting_level": 3,
    "outlets_density": 0,
    "seating_type": "bench",
    "linger_ok": true,
    "low_sensory": true,
    "outdoor_seating": true,
    "accessible_restroom": false,
    "open_late": false,
    "wifi_quality": 0,
    "safety_evening": 2
  },
  {
    "id": "seattle-spot-31",
    "name": "Seattle Spot 31",
    "address": "Various, Seattle, WA",
    "lat": 47.6096,
    "lng": -122.3673,
    "city": "Seattle",
    "category": "park",
    "quiet_level": 2,
    "lighting_level": 3,
    "outlets_density": 0,
    "seating_type": "bench",
    "linger_ok": true,
    "low_sensory": true,
    "outdoor_seating": true,
    "accessible_restroom": false,
    "open_late": false,
    "wifi_quality": 0,
    "safety_evening": 2
  },
  {
    "id": "seattle-spot-32",
    "name": "Seattle Spot 32",
    "address": "Various, Seattle, WA",
    "lat": 47.6431,
    "lng": -122.3822,
    "city": "Seattle",
    "category": "park",
    "quiet_level": 2,
    "lighting_level": 3,
    "outlets_density": 0,
    "seating_type": "bench",
    "linger_ok": true,
    "low_sensory": true,
    "outdoor_seating": true,
    "accessible_restroom": false,
    "open_late": false,
    "wifi_quality": 0,
    "safety_evening": 2
  },
  {
    "id": "seattle-spot-33",
    "name": "Seattle Spot 33",
    "address": "Various, Seattle, WA",
    "lat": 47.652,
    "lng": -122.2933,
    "city": "Seattle",
    "category": "park",
    "quiet_level": 2,
    "lighting_level": 3,
    "outlets_density": 0,
    "seating_type": "bench",
    "linger_ok": true,
    "low_sensory": true,
    "outdoor_seating": true,
    "accessible_restroom": false,
    "open_late": false,
    "wifi_quality": 0,
    "safety_evening": 2
  },
  {
    "id": "seattle-spot-34",
    "name": "Seattle Spot 34",
    "address": "Various, Seattle, WA",
    "lat": 47.6124,
    "lng": -122.2939,
    "city": "Seattle",
    "category": "park",
    "quiet_level": 2,
    "lighting_level": 3,
    "outlets_density": 0,
    "seating_type": "bench",
    "linger_ok": true,
    "low_sensory": true,
    "outdoor_seating": true,
    "accessible_restroom": false,
    "open_late": false,
    "wifi_quality": 0,
    "safety_evening": 2
  },
  {
    "id": "seattle-spot-35",
    "name": "Seattle Spot 35",
    "address": "Various, Seattle, WA",
    "lat": 47.643,
    "lng": -122.3307,
    "city": "Seattle",
    "category": "park",
    "quiet_level": 2,
    "lighting_level": 3,
    "outlets_density": 0,
    "seating_type": "bench",
    "linger_ok": true,
    "low_sensory": true,
    "outdoor_seating": true,
    "accessible_restroom": false,
    "open_late": false,
    "wifi_quality": 0,
    "safety_evening": 2
  },
  {
    "id": "seattle-spot-36",
    "name": "Seattle Spot 36",
    "address": "Various, Seattle, WA",
    "lat": 47.5687,
    "lng": -122.3749,
    "city": "Seattle",
    "category": "park",
    "quiet_level": 2,
    "lighting_level": 3,
    "outlets_density": 0,
    "seating_type": "bench",
    "linger_ok": true,
    "low_sensory": true,
    "outdoor_seating": true,
    "accessible_restroom": false,
    "open_late": false,
    "wifi_quality": 0,
    "safety_evening": 2
  },
  {
    "id": "seattle-spot-37",
    "name": "Seattle Spot 37",
    "address": "Various, Seattle, WA",
    "lat": 47.5642,
    "lng": -122.3774,
    "city": "Seattle",
    "category": "park",
    "quiet_level": 2,
    "lighting_level": 3,
    "outlets_density": 0,
    "seating_type": "bench",
    "linger_ok": true,
    "low_sensory": true,
    "outdoor_seating": true,
    "accessible_restroom": false,
    "open_late": false,
    "wifi_quality": 0,
    "safety_evening": 2
  },
  {
    "id": "seattle-spot-38",
    "name": "Seattle Spot 38",
    "address": "Various, Seattle, WA",
    "lat": 47.5455,
    "lng": -122.3116,
    "city": "Seattle",
    "category": "park",
    "quiet_level": 2,
    "lighting_level": 3,
    "outlets_density": 0,
    "seating_type": "bench",
    "linger_ok": true,
    "low_sensory": true,
    "outdoor_seating": true,
    "accessible_restroom": false,
    "open_late": false,
    "wifi_quality": 0,
    "safety_evening": 2
  },
  {
    "id": "seattle-spot-39",
    "name": "Seattle Spot 39",
    "address": "Various, Seattle, WA",
    "lat": 47.6249,
    "lng": -122.3881,
    "city": "Seattle",
    "category": "park",
    "quiet_level": 2,
    "lighting_level": 3,
    "outlets_density": 0,
    "seating_type": "bench",
    "linger_ok": true,
    "low_sensory": true,
    "outdoor_seating": true,
    "accessible_restroom": false,
    "open_late": false,
    "wifi_quality": 0,
    "safety_evening": 2
  },
  {
    "id": "seattle-spot-40",
    "name": "Seattle Spot 40",
    "address": "Various, Seattle, WA",
    "lat": 47.5842,
    "lng": -122.3571,
    "city": "Seattle",
    "category": "park",
    "quiet_level": 2,
    "lighting_level": 3,
    "outlets_density": 0,
    "seating_type": "bench",
    "linger_ok": true,
    "low_sensory": true,
    "outdoor_seating": true,
    "accessible_restroom": false,
    "open_late": false,
    "wifi_quality": 0,
    "safety_evening": 2
  }
]